Date_GMT,Time_GMT,depth,X,Y,Xcorr,Ycorr,Lat1Hz,Lon1Hz,pitch,roll,heading_geo,heading_mag,speed,divenumber,divenumber_inc_inaccuratedepth,light2,pred_divetype,wet-dry,datetimenumeric,strokingrate,detectedfeeding
11/17/13,14:36:33,0,\N,\N,\N,\N,-42.90398970478208,-56.27144403555452,1.458919318280868,3.135024055084564,6.101767809631949,6.077333200104028,3.42053432130935,\N,\N,65535,\N,202,1384698993,0,\N
11/17/13,14:36:34,0,\N,\N,\N,\N,-42.90398970478208,-56.27144403555452,1.3758357129089185,3.133487976010507,6.12392829047013,6.099493680942209,3.4203534277169485,\N,\N,65535,\N,210,1384698994,0,\N
11/17/13,14:36:35,0,\N,\N,\N,\N,-42.90398970478208,-56.27144403555452,1.445250826655876,3.057352789108667,6.071399634457903,6.046965024929982,3.420546044921268,\N,\N,65535,\N,172,1384698995,0,\N
11/17/13,14:36:36,0,\N,\N,\N,\N,-42.90398970478208,-56.27144403555452,1.3206619382937035,-3.1064847501011803,6.225248604814908,6.200813995286987,3.420503492964744,\N,\N,65535,\N,83,1384698996,0,\N
11/17/13,14:36:37,0,\N,\N,\N,\N,-42.90398970478208,-56.27144403555452,1.3328390098068699,-2.93506366877953,0.07278562112374037,0.048351011595819754,3.4206742427704553,\N,\N,65535,\N,177,1384698997,0,\N
11/17/13,14:36:38,0,\N,\N,\N,\N,-42.90398970478208,-56.27144403555452,1.453469870006561,-2.8167299078456463,0.2043630471683948,0.17992843764047417,3.42074197938975,\N,\N,65535,\N,154,1384698998,0,\N
11/17/13,14:36:39,0,\N,\N,\N,\N,-42.90398970478208,-56.27144403555452,1.4529123210686543,-3.1028746104492617,6.215344399464794,6.190909789936873,3.420916002242433,\N,\N,65535,\N,189,1384698999,0,\N
11/17/13,14:36:40,0,\N,\N,\N,\N,-42.90398970478208,-56.27144403555452,1.3826644399531012,3.042450468695807,6.126283347348096,6.101848737820175,3.4211646361835983,\N,\N,65535,\N,87,1384699000,0,\N
11/17/13,14:36:41,0,\N,\N,\N,\N,-42.90398970478208,-56.27144403555452,1.379819166350287,-2.81717040388491,0.25900656652515985,0.23457195699723923,3.421289222101372,\N,\N,65535,\N,164,1384699001,0,\N
11/17/13,14:36:42,0,\N,\N,\N,\N,-42.90398970478208,-56.27144403555452,1.4214345766816014,-2.9024674946102684,0.19299817912465492,0.1685635695967343,3.4215308369910082,\N,\N,65535,\N,194,1384699002,0,\N
11/17/13,14:36:43,0,\N,\N,\N,\N,-42.90398970478208,-56.27144403555452,1.3736342981126364,2.7836315617453167,5.952289371859288,5.927854762331367,3.4218966484046973,\N,\N,65535,\N,161,1384699003,0,\N
11/17/13,14:36:44,0,\N,\N,\N,\N,-42.90398970478208,-56.27144403555452,1.3699167852891456,-2.9820995651623976,0.15243091039153578,0.12799630086361516,3.4221060761118007,\N,\N,65535,\N,85,1384699004,0,\N
11/17/13,14:36:45,0,\N,\N,\N,\N,-42.90398970478208,-56.27144403555452,1.396776704431232,-2.681784797398336,0.4534184965107359,0.4289838869828153,3.422322733378374,\N,\N,65535,\N,180,1384699005,0,\N
11/17/13,14:36:46,0,\N,\N,\N,\N,-42.90398970478208,-56.27144403555452,1.4225214784785405,-2.8398489449385775,0.3272749979060841,0.3028403883781635,3.4221699030304094,\N,\N,65535,\N,204,1384699006,0,\N
11/17/13,14:36:47,0,\N,\N,\N,\N,-42.90398970478208,-56.27144403555452,1.4433159161923022,2.5324144317145194,5.743704442122182,5.719269832594261,3.421594354748147,\N,\N,65535,\N,209,1384699007,0,\N
11/17/13,14:36:48,0,\N,\N,\N,\N,-42.90398970478208,-56.27144403555452,1.3634899944086076,-2.9085138935885717,0.2651754435132713,0.24074083398535073,3.42084468291746,\N,\N,65535,\N,135,1384699008,0,\N
11/17/13,14:36:49,0,\N,\N,\N,\N,-42.90398970478208,-56.27144403555452,1.3566856817761415,-3.078886129082292,0.11290833454652552,0.08847372501860491,3.4197851355368045,\N,\N,65535,\N,83,1384699009,0,\N
11/17/13,14:36:50,0,\N,\N,\N,\N,-42.90398970478208,-56.27144403555452,1.386533299665947,2.7140495870537826,5.949110291511429,5.9246756819835085,3.4186226543973186,\N,\N,65535,\N,181,1384699010,0,\N
11/17/13,14:36:51,0,\N,\N,\N,\N,-42.90398970478208,-56.27144403555452,1.4207015211940233,2.9162822749980393,6.105114022865549,6.080679413337628,3.4177583326230376,\N,\N,65535,\N,199,1384699011,0,\N
11/17/13,14:36:52,0,\N,\N,\N,\N,-42.90398970478208,-56.27144403555452,1.3796779402018673,2.6923126716876173,5.924706788875089,5.900272179347168,3.4170501731548137,\N,\N,65535,\N,83,1384699012,0,\N
11/17/13,14:36:53,0,\N,\N,\N,\N,-42.90398970478208,-56.27144403555452,1.3966979093347296,-3.0425209326347664,0.14181641077363719,0.11738180124571658,3.4160568817515715,\N,\N,65535,\N,83,1384699013,0,\N
11/17/13,14:36:54,0,\N,\N,\N,\N,-42.90398970478208,-56.27144403555452,1.420924039583822,3.1245966251191577,0.04410834621087385,0.019673736682953236,3.4150985237597533,\N,\N,65535,\N,183,1384699014,0,\N
11/17/13,14:36:55,0,\N,\N,\N,\N,-42.90398970478208,-56.27144403555452,1.448418735680805,2.800184844768014,6.056854843303638,6.032420233775717,3.414449865456018,\N,\N,65535,\N,83,1384699015,0,\N
11/17/13,14:36:56,0,\N,\N,\N,\N,-42.90398970478208,-56.27144403555452,1.433561006788127,3.120329646042846,0.07439371785165433,0.04995910832373372,3.4143500553160058,\N,\N,65535,\N,194,1384699016,0,\N
11/17/13,14:36:57,0,\N,\N,\N,\N,-42.90398970478208,-56.27144403555452,1.4167737187641636,2.690716315498007,5.976769740409665,5.952335130881744,3.413430520922086,\N,\N,65535,\N,209,1384699017,0,\N
11/17/13,14:36:58,0,\N,\N,\N,\N,-42.90398970478208,-56.27144403555452,1.3769823152124498,2.861438419871242,6.14914622890284,6.124711619374919,3.403544973626641,\N,\N,65535,\N,138,1384699018,0,\N
11/17/13,14:36:59,0,\N,\N,\N,\N,-42.90398970478208,-56.27144403555452,1.5297545321614467,1.2981000665121285,4.5457124546271395,4.521277845099219,3.392586038403317,\N,\N,65535,\N,171,1384699019,0,\N
11/17/13,14:37:00,0,\N,\N,\N,\N,-42.90398970478208,-56.27144403555452,1.4821363488576276,2.974211002384077,6.259099047689261,6.2346644381613405,3.3856063523897286,\N,\N,65535,\N,155,1384699020,0,\N
11/17/13,14:37:01,0,\N,\N,\N,\N,-42.90398970478208,-56.27144403555452,1.4164883637509196,3.037209177645517,6.258418977029413,6.233984367501492,3.3866697093302838,\N,\N,65535,\N,185,1384699021,0,\N
11/17/13,14:37:02,0,\N,\N,\N,\N,-42.90398970478208,-56.27144403555452,1.531809116768409,2.5369920510077697,5.805914077647893,5.781479468119972,3.3776880427495115,\N,\N,65535,\N,203,1384699022,0,\N
11/17/13,14:37:03,0,\N,\N,\N,\N,-42.90398970478208,-56.27144403555452,1.3897557652055494,-3.0047213860207465,0.24080165973083062,0.21636705020291,3.3778735453921063,\N,\N,65535,\N,214,1384699023,0,\N
11/17/13,14:37:04,0,\N,\N,\N,\N,-42.90398970478208,-56.27144403555452,1.3686211071640977,2.5592577001479326,5.874453178183084,5.850018568655163,3.3638210482800917,\N,\N,65535,\N,169,1384699024,0,\N
11/17/13,14:37:05,0,\N,\N,\N,\N,-42.90398970478208,-56.27144403555452,1.4337298306068629,-2.5925021131742416,0.5585030428620741,0.5340684333341534,3.357809549877589,\N,\N,65535,\N,194,1384699025,0,\N
11/17/13,14:37:06,0,\N,\N,\N,\N,-42.90398970478208,-56.27144403555452,1.4296387508769746,3.141592653589793,0.02443460952792087,6.283185307179586,3.342543165865467,\N,\N,65535,\N,210,1384699026,0,\N
11/17/13,14:37:07,0,\N,\N,\N,\N,-42.90398970478208,-56.27144403555452,1.3757564838881822,-3.070207561053051,0.09534982349284754,0.07091521396492693,3.339865379554048,\N,\N,65535,\N,115,1384699027,0,\N
11/17/13,14:37:08,0,\N,\N,\N,\N,-42.90398970478208,-56.27144403555452,1.4400641880125769,2.7885512842585833,6.006037727276277,5.981603117748356,3.3498747737035433,\N,\N,65535,\N,188,1384699028,0,\N
11/17/13,14:37:09,0,\N,\N,\N,\N,-42.90398970478208,-56.27144403555452,1.4320072742353833,-3.1338297092165295,0.040361413547181715,0.015926804019261106,3.376700988881153,\N,\N,65535,\N,205,1384699029,0,\N
11/17/13,14:37:10,0,\N,\N,\N,\N,-42.90398970478208,-56.27144403555452,1.3930724657362303,3.010333226051929,6.176355548388956,6.151920938861035,3.3918016208318997,\N,\N,65535,\N,214,1384699030,0,\N
11/17/13,14:37:11,0,\N,\N,\N,\N,-42.90398970478208,-56.27144403555452,1.3811598657923325,-2.9683516391351867,0.11312751633522583,0.08869290680730522,3.4076078169061628,\N,\N,65535,\N,217,1384699031,0,\N
11/17/13,14:37:12,0,\N,\N,\N,\N,-42.90398970478208,-56.27144403555452,1.3505069962934555,3.038164796730589,6.156375267594347,6.131940658066426,3.4215839366923406,\N,\N,65535,\N,138,1384699032,0,\N
11/17/13,14:37:13,0,\N,\N,\N,\N,-42.90398970478208,-56.27144403555452,1.4071195074428609,-3.041671635665403,0.06724010839381361,0.042805498865892994,3.423166803209153,\N,\N,65535,\N,195,1384699033,0,\N
11/17/13,14:37:14,0,\N,\N,\N,\N,-42.90398970478208,-56.27144403555452,1.3501340565361022,2.9731661113577026,6.12616895903352,6.101734349505599,3.423117951663092,\N,\N,65535,\N,188,1384699034,0,\N
11/17/13,14:37:15,0,\N,\N,\N,\N,-42.90398970478208,-56.27144403555452,1.3193823810179097,3.089030191443705,6.241595228542917,6.217160619014996,3.418136669436829,\N,\N,65535,\N,182,1384699035,0,\N
11/17/13,14:37:16,0,\N,\N,\N,\N,-42.90398970478208,-56.27144403555452,1.3154902525313403,-2.9606670145440317,0.15942833910226814,0.13499372957434752,3.3956195713200676,\N,\N,65535,\N,198,1384699036,0,\N
11/17/13,14:37:17,0,\N,\N,\N,\N,-42.90398970478208,-56.27144403555452,1.3676507275477923,3.115177141327448,6.275925626531263,6.251491017003342,3.371571164776798,\N,\N,65535,\N,209,1384699037,0,\N
11/17/13,14:37:18,0,\N,\N,\N,\N,-42.90398970478208,-56.27144403555452,1.4046650557786666,3.0725461975642507,6.2403573255496525,6.215922716021732,3.3362984386199495,\N,\N,65535,\N,137,1384699038,0,\N
11/17/13,14:37:19,0,\N,\N,\N,\N,-42.90398970478208,-56.27144403555452,1.2813727896812255,-3.1220959712559773,0.03438144147895451,0.009946831951033892,3.3075139285581767,\N,\N,65535,\N,188,1384699039,0,\N
11/17/13,14:37:20,0,\N,\N,\N,\N,-42.90398970478208,-56.27144403555452,1.2416875122723923,-3.128555633058401,0.018138985086406656,6.276889682738072,3.282621737012642,\N,\N,65535,\N,127,1384699040,0,\N
11/17/13,14:37:21,0,\N,\N,\N,\N,-42.90398970478208,-56.27144403555452,1.3084068215292046,3.0959825621579578,6.25597489813891,6.231540288610989,3.2801440582215515,\N,\N,65535,\N,198,1384699041,0,\N
11/17/13,14:37:22,0,\N,\N,\N,\N,-42.90398970478208,-56.27144403555452,1.4234704163363319,3.058479925800152,6.2092907809837605,6.18485617145584,3.2867346230132886,\N,\N,65535,\N,160,1384699042,0,\N
11/17/13,14:37:23,0,\N,\N,\N,\N,-42.90398970478208,-56.27144403555452,1.375090054348396,-3.126281100090132,0.03210945512906072,0.00767484560114011,3.3054715089580915,\N,\N,65535,\N,189,1384699043,0,\N
11/17/13,14:37:24,0,\N,\N,\N,\N,-42.90398970478208,-56.27144403555452,1.3970840298047789,-3.0417954038605135,0.12159214667041032,0.09715753714248972,3.3142265965342395,\N,\N,65535,\N,136,1384699044,0,\N
11/17/13,14:37:25,0,\N,\N,\N,\N,-42.90398970478208,-56.27144403555452,1.3421253501344714,3.042612530077088,6.239930358870866,6.215495749342945,3.326462742485538,\N,\N,65535,\N,83,1384699045,0,\N
11/17/13,14:37:26,0,\N,\N,\N,\N,-42.90398970478208,-56.27144403555452,1.3650517330019083,-2.7575837224529183,0.3892116751033007,0.3647770655753801,3.32934261848723,\N,\N,65535,\N,172,1384699046,0,\N
11/17/13,14:37:27,0,\N,\N,\N,\N,-42.90398970478208,-56.27144403555452,1.319804894933077,-3.0391480152080597,0.15438696811552657,0.12995235858760595,3.3176070840370353,\N,\N,65535,\N,127,1384699047,0,\N
11/17/13,14:37:28,0,\N,\N,\N,\N,-42.90398970478208,-56.27144403555452,1.2957803037142848,2.9899621236961935,6.248103446929273,6.223668837401352,3.30278057120517,\N,\N,65535,\N,198,1384699048,0,\N
11/17/13,14:37:29,0,\N,\N,\N,\N,-42.90398970478208,-56.27144403555452,1.3915089411579022,3.1176800869581203,0.06255248310267184,0.038117873574751215,3.2976571039637372,\N,\N,65535,\N,208,1384699049,0,\N
11/17/13,14:37:30,0,\N,\N,\N,\N,-42.90398970478208,-56.27144403555452,1.2968209466769611,-3.0941420478322574,0.1527349711490808,0.12830036162116018,3.293419271725462,\N,\N,65535,\N,82,1384699050,0,\N
11/17/13,14:37:31,0,\N,\N,\N,\N,-42.90398970478208,-56.27144403555452,1.30727795432209,3.0521021573685383,0.03726115344469583,0.012826543916775212,3.294557359795374,\N,\N,65535,\N,185,1384699051,0,\N
11/17/13,14:37:32,0,\N,\N,\N,\N,-42.90398970478208,-56.27144403555452,1.398924659525863,2.8414501724913364,6.1623931585493805,6.13795854902146,3.303423137408033,\N,\N,65535,\N,205,1384699052,0,\N
11/17/13,14:37:33,0,\N,\N,\N,\N,-42.90398970478208,-56.27144403555452,1.3381517323831524,2.9908470866837935,0.06766219934270834,0.043227589814787734,3.306523731468075,\N,\N,65535,\N,159,1384699053,0,\N
11/17/13,14:37:34,0,\N,\N,\N,\N,-42.90398970478208,-56.27144403555452,1.3146278970489316,-2.906534631451776,0.4004932576039561,0.3760586480760355,3.2996922182094384,\N,\N,65535,\N,191,1384699054,0,\N
11/17/13,14:37:35,0,\N,\N,\N,\N,-42.90398970478208,-56.27144403555452,1.324614603398958,-2.8880185492624606,0.3671921362757054,0.3427575267477848,3.288845537268975,\N,\N,65535,\N,212,1384699055,0,\N
11/17/13,14:37:36,0,\N,\N,\N,\N,-42.90398970478208,-56.27144403555452,1.4866148430224297,-2.8204083366077075,0.440765757950431,0.4163311484225104,3.279222758884785,\N,\N,65535,\N,214,1384699056,0,\N
11/17/13,14:37:37,0,\N,\N,\N,\N,-42.90398970478208,-56.27144403555452,1.386303589889933,3.0261949369402883,0.03161779234079691,0.007183182812876299,3.272074902257564,\N,\N,65535,\N,83,1384699057,0,\N
11/17/13,14:37:38,0,\N,\N,\N,\N,-42.90398970478208,-56.27144403555452,1.2771640635878725,-3.0130356684922517,0.21850351293156786,0.19406890340364724,3.2713424914531775,\N,\N,65535,\N,82,1384699058,0,\N
11/17/13,14:37:39,0,\N,\N,\N,\N,-42.90398970478208,-56.27144403555452,1.3563747650280504,2.8911962298896747,6.141113829065335,6.1166792195374144,3.2813224997482315,\N,\N,65535,\N,175,1384699059,0,\N
11/17/13,14:37:40,0,\N,\N,\N,\N,-42.90398970478208,-56.27144403555452,1.3729253255385596,2.9261819601899126,6.152583162139096,6.128148552611175,3.2765975660925473,\N,\N,65535,\N,212,1384699060,0,\N
11/17/13,14:37:41,0,\N,\N,\N,\N,-42.90398970478208,-56.27144403555452,1.3128081130723475,-2.869170388437673,0.24404784344519323,0.2196132339172726,3.2847360781512727,\N,\N,65535,\N,212,1384699061,0,\N
11/17/13,14:37:42,0,\N,\N,\N,\N,-42.90398970478208,-56.27144403555452,1.3382408806951094,-3.121461981519543,6.279052785947079,6.254618176419158,3.2754160548025935,\N,\N,65535,\N,212,1384699062,0,\N
11/17/13,14:37:43,0,\N,\N,\N,\N,-42.90398970478208,-56.27144403555452,1.2850152925893645,-3.062503349378321,0.06234331217060588,0.03790870264268527,3.2740039329326844,\N,\N,65535,\N,82,1384699063,0,\N
11/17/13,14:37:44,0,\N,\N,\N,\N,-42.90398970478208,-56.27144403555452,1.365338246334498,-3.0921142898686447,0.014301097543638619,6.273051795195304,3.269938651823181,\N,\N,65535,\N,163,1384699064,0,\N
11/17/13,14:37:45,0,\N,\N,\N,\N,-42.90398970478208,-56.27144403555452,1.3185465397583558,-3.051775086458031,0.05567211953270522,0.031237510004784603,3.280380445342783,\N,\N,65535,\N,196,1384699065,0,\N
11/17/13,14:37:46,0,\N,\N,\N,\N,-42.90398970478208,-56.27144403555452,1.369344218145434,3.013155675287205,6.12783982051129,6.103405210983369,3.2789734788941813,\N,\N,65535,\N,195,1384699066,0,\N
11/17/13,14:37:47,0,\N,\N,\N,\N,-42.90398970478208,-56.27144403555452,1.3288016028512877,-3.030555604619381,0.04802086625031703,0.02358625672239642,3.289226895441417,\N,\N,65535,\N,194,1384699067,0,\N
11/17/13,14:37:48,0,\N,\N,\N,\N,-42.90398970478208,-56.27144403555452,1.3708725477882662,2.8948272480165076,6.00007032254363,5.975635713015709,3.2895186981487186,\N,\N,65535,\N,169,1384699068,0,\N
11/17/13,14:37:49,0,\N,\N,\N,\N,-42.90398970478208,-56.27144403555452,1.3341772020575755,-3.101549327540169,6.204979031400719,6.180544421872798,3.2871398113424624,\N,\N,65535,\N,82,1384699069,0,\N
11/17/13,14:37:50,0,\N,\N,\N,\N,-42.90398970478208,-56.27144403555452,1.4380028863475263,-2.657073843591289,0.337312394382967,0.3128777848550464,3.2927458844287805,\N,\N,65535,\N,196,1384699070,0,\N
11/17/13,14:37:51,0,\N,\N,\N,\N,-42.90398970478208,-56.27144403555452,1.4042827832846831,3.116521944222822,6.179339128012877,6.1549045184849565,3.295012712877664,\N,\N,65535,\N,208,1384699071,0,\N
11/17/13,14:37:52,0,\N,\N,\N,\N,-42.90398970478208,-56.27144403555452,1.368206242775889,2.762156675665396,5.832989212160698,5.8085546026327775,3.3069562544073055,\N,\N,65535,\N,88,1384699072,0,\N
11/17/13,14:37:53,0,\N,\N,\N,\N,-42.90398970478208,-56.27144403555452,1.2832339692262775,3.052373202528611,6.069639812211734,6.045205202683813,3.3179598154502323,\N,\N,65535,\N,82,1384699073,0,\N
11/17/13,14:37:54,0,\N,\N,\N,\N,-42.90398970478208,-56.27144403555452,1.3010600613495116,-2.8175283290554622,0.10479500174760165,0.08036039221968104,3.3264494836055682,\N,\N,65535,\N,178,1384699074,0,\N
11/17/13,14:37:55,0,\N,\N,\N,\N,-42.90398970478208,-56.27144403555452,1.3272363621466372,-2.959232535642467,6.256423777336337,6.2319891678084165,3.3235783393386398,\N,\N,65535,\N,83,1384699075,0,\N
11/17/13,14:37:56,0,\N,\N,\N,\N,-42.90398970478208,-56.27144403555452,1.346668325505353,3.0785168482219354,6.047188507204888,6.022753897676967,3.317438223315114,\N,\N,65535,\N,177,1384699076,0,\N
11/17/13,14:37:57,0,\N,\N,\N,\N,-42.90398970478208,-56.27144403555452,1.3371744185059034,-2.9325332982661347,6.268433303405469,6.243998693877548,3.3153782927734925,\N,\N,65535,\N,198,1384699077,0,\N
11/17/13,14:37:58,0,\N,\N,\N,\N,-42.90398970478208,-56.27144403555452,1.2991991625428807,-2.8883456352862105,6.263286907224303,6.238852297696382,3.3213841973576814,\N,\N,65535,\N,196,1384699078,0,\N
11/17/13,14:37:59,0,\N,\N,\N,\N,-42.90398970478208,-56.27144403555452,1.3193700166385625,-2.938106446899705,6.191492556156945,6.167057946629024,3.320697381840954,\N,\N,65535,\N,185,1384699079,0,\N
11/17/13,14:38:00,0,\N,\N,\N,\N,-42.90398970478208,-56.27144403555452,1.2361516579679503,-2.9973774943964147,6.117599963063953,6.093165353536032,3.3255161498993235,\N,\N,65535,\N,83,1384699080,0,\N
11/17/13,14:38:01,0,\N,\N,\N,\N,-42.90398970478208,-56.27144403555452,1.2894097507839084,-3.0243466167200346,6.043931218214171,6.01949660868625,3.3213782250466357,\N,\N,65535,\N,138,1384699081,0,\N
11/17/13,14:38:02,0,\N,\N,\N,\N,-42.90398970478208,-56.27144403555452,1.3777126591813,-2.9825332854940347,6.035599490911113,6.011164881383192,3.285984265855043,\N,\N,65535,\N,178,1384699082,0,\N
11/17/13,14:38:03,0,\N,\N,\N,\N,-42.90398970478208,-56.27144403555452,1.3485436141832663,-2.746497498883994,6.217008059774481,6.19257345024656,3.234831079621507,\N,\N,65535,\N,184,1384699083,0,\N
11/17/13,14:38:04,0,\N,\N,\N,\N,-42.90398970478208,-56.27144403555452,1.3720612802568637,-2.936551678208005,6.06521262363546,6.04077801410754,3.2029190919201564,\N,\N,65535,\N,201,1384699084,0,\N
11/17/13,14:38:05,0,\N,\N,\N,\N,-42.90398970478208,-56.27144403555452,1.2632203125185222,-2.999304277602773,6.0224842520075965,5.998049642479676,3.1933898535544625,\N,\N,65535,\N,83,1384699085,0,\N
11/17/13,14:38:06,0,\N,\N,\N,\N,-42.90398970478208,-56.27144403555452,1.2714987044365955,-2.88636956483798,6.03133990826206,6.006905298734139,3.152547030948991,\N,\N,65535,\N,83,1384699086,0,\N
11/17/13,14:38:07,0,\N,\N,\N,\N,-42.90398970478208,-56.27144403555452,1.2444422526434589,-3.1044231316359316,5.782631824948199,5.758197215420278,3.128902909494153,\N,\N,65535,\N,83,1384699087,0,\N
11/17/13,14:38:08,0,\N,\N,\N,\N,-42.90398970478208,-56.27144403555452,1.323850021442203,-2.9692931002083975,5.882833913772816,5.858399304244895,3.117253327967842,\N,\N,65535,\N,152,1384699088,0,\N
11/17/13,14:38:09,0,\N,\N,\N,\N,-42.90398970478208,-56.27144403555452,1.3154697948620169,-2.8746023394507274,5.980933460867565,5.956498851339644,3.1113264450200706,\N,\N,65535,\N,181,1384699089,0,\N
11/17/13,14:38:10,0,\N,\N,\N,\N,-42.90398970478208,-56.27144403555452,1.3559883867337925,3.0340860767115805,5.703230840341004,5.6787962308130835,3.100897298902538,\N,\N,65535,\N,175,1384699090,0,\N
11/17/13,14:38:11,0,\N,\N,\N,\N,-42.90398970478208,-56.27144403555452,1.3478775711249529,2.800024687093446,5.496882688176633,5.472448078648712,3.135225757244789,\N,\N,65535,\N,192,1384699091,0,\N
11/17/13,14:38:12,0,\N,\N,\N,\N,-42.90398970478208,-56.27144403555452,1.2670971002536162,-2.8136549780541134,6.099000937030368,6.074566327502447,3.134887033890461,\N,\N,65535,\N,195,1384699092,0,\N
11/17/13,14:38:13,0,\N,\N,\N,\N,-42.90398970478208,-56.27144403555452,1.3922933535182116,2.78625146456724,5.525113476550338,5.500678867022417,3.1462794080589966,\N,\N,65535,\N,159,1384699093,0,\N
11/17/13,14:38:14,0,\N,\N,\N,\N,-42.90398970478208,-56.27144403555452,1.285123193703837,-3.0736992060495614,5.971438741985542,5.9470041324576215,3.1649995578462455,\N,\N,65535,\N,83,1384699094,0,\N
11/17/13,14:38:15,0,\N,\N,\N,\N,-42.90398970478208,-56.27144403555452,1.3438305500923644,-2.6502660752836995,0.06212591378676586,0.037691304258845246,3.1411136280453906,\N,\N,65535,\N,195,1384699095,0,\N
11/17/13,14:38:16,0,\N,\N,\N,\N,-42.90398970478208,-56.27144403555452,1.3477607449543145,-3.032690681566577,5.962105243032069,5.9376706335041485,3.099819649247218,\N,\N,65535,\N,190,1384699096,0,\N
11/17/13,14:38:17,0,\N,\N,\N,\N,-42.90398970478208,-56.27144403555452,1.4426502748968406,-2.9265531862696363,6.0032144855709015,5.978779876042981,3.0955774686002333,\N,\N,65535,\N,83,1384699097,0,\N
11/17/13,14:38:18,0,\N,\N,\N,\N,-42.90398970478208,-56.27144403555452,1.4010101724802488,-2.966527910745871,6.029214182922284,6.004779573394363,3.0926292982709027,\N,\N,65535,\N,165,1384699098,0,\N
11/17/13,14:38:19,0,\N,\N,\N,\N,-42.90398970478208,-56.27144403555452,1.3143536490897145,2.951127959342111,5.761607351682121,5.7371727421542005,3.067116142041189,\N,\N,65535,\N,90,1384699099,0,\N
11/17/13,14:38:20,0,\N,\N,\N,\N,-42.90398970478208,-56.27144403555452,1.3770081312136297,-2.895258298130634,6.076410715433797,6.051976105905876,3.0647616229809866,\N,\N,65535,\N,157,1384699100,0,\N
11/17/13,14:38:21,0,\N,\N,\N,\N,-42.90398970478208,-56.27144403555452,1.3669800853582745,-2.794713326795749,6.168023915700277,6.143589306172356,3.0778227013217627,\N,\N,65535,\N,177,1384699101,0,\N
11/17/13,14:38:22,0,\N,\N,\N,\N,-42.90398970478208,-56.27144403555452,1.3511807202777977,-2.9982593988939334,5.987783833397012,5.963349223869091,3.0978904024257012,\N,\N,65535,\N,194,1384699102,0,\N
11/17/13,14:38:23,0,\N,\N,\N,\N,-42.90398970478208,-56.27144403555452,1.363809731404284,-2.9307468752754433,6.050912334284015,6.026477724756094,3.104153114255101,\N,\N,65535,\N,186,1384699103,0,\N
11/17/13,14:38:24,0,\N,\N,\N,\N,-42.90398970478208,-56.27144403555452,1.343802070508501,3.125618649402774,5.8349702294718995,5.810535619943979,3.1107080808272562,\N,\N,65535,\N,154,1384699104,0,\N
11/17/13,14:38:25,0,\N,\N,\N,\N,-42.90398970478208,-56.27144403555452,1.3696753245007534,-2.5229978617106514,0.0833034684237659,0.05886885889584529,3.1166343828092673,\N,\N,65535,\N,161,1384699105,0,\N
11/17/13,14:38:26,0,\N,\N,\N,\N,-42.90398970478208,-56.27144403555452,1.3665334965675267,-2.9064483239566448,5.977322922960241,5.95288831343232,3.1099026892128827,\N,\N,65535,\N,172,1384699106,0,\N
11/17/13,14:38:27,0,\N,\N,\N,\N,-42.90398970478208,-56.27144403555452,1.3654440581984129,-3.03468918698129,5.892427579993204,5.867992970465283,3.1017017557949638,\N,\N,65535,\N,85,1384699107,0,\N
11/17/13,14:38:28,0,\N,\N,\N,\N,-42.90398970478208,-56.27144403555452,1.2992702450502933,-2.8967063393215478,6.006206405603103,5.981771796075182,3.09903171855494,\N,\N,65535,\N,83,1384699108,0,\N
11/17/13,14:38:29,0,\N,\N,\N,\N,-42.90398970478208,-56.27144403555452,1.377965273635787,-2.6414524823278263,6.252005274287328,6.227570664759408,3.1072226884999954,\N,\N,65535,\N,83,1384699109,0,\N
11/17/13,14:38:30,0,\N,\N,\N,\N,-42.90398970478208,-56.27144403555452,1.3515922393701292,-2.9988058282806787,5.937241602629896,5.9128069931019756,3.1208680645300086,\N,\N,65535,\N,83,1384699110,0,\N
11/17/13,14:38:31,0,\N,\N,\N,\N,-42.90398970478208,-56.27144403555452,1.305102360419837,-2.9622308806959214,6.027548285042352,6.003113675514431,3.1547668324282965,\N,\N,65535,\N,83,1384699111,0,\N
11/17/13,14:38:32,0,\N,\N,\N,\N,-42.90398970478208,-56.27144403555452,1.2989518633716755,-2.959460524180328,6.078041407252655,6.0536067977247345,3.1224024808897193,\N,\N,65535,\N,179,1384699112,0,\N
11/17/13,14:38:33,0,\N,\N,\N,\N,-42.90398970478208,-56.27144403555452,1.2927687067731821,-2.690200713735537,0.08724298316346574,0.06280837363554512,3.0967071611606656,\N,\N,65535,\N,197,1384699113,0,\N
11/17/13,14:38:34,0,\N,\N,\N,\N,-42.90398970478208,-56.27144403555452,1.265353934515618,3.132202608315874,6.028357344699831,6.00392273517191,3.058138861052146,\N,\N,65535,\N,109,1384699114,0,\N
11/17/13,14:38:35,0,\N,\N,\N,\N,-42.90398970478208,-56.27144403555452,1.3320703709597177,-2.825004906648569,0.022991251815144942,6.28174194946681,3.0104071239688612,\N,\N,65535,\N,184,1384699115,0,\N
11/17/13,14:38:36,0,\N,\N,\N,\N,-42.90398970478208,-56.27144403555452,1.3076232732592608,-2.9268767138258007,6.269425608241004,6.244990998713083,2.9825549403363336,\N,\N,65535,\N,84,1384699116,0,\N
11/17/13,14:38:37,0,\N,\N,\N,\N,-42.90398970478208,-56.27144403555452,1.353346825890317,3.033485689978765,6.0567380918586835,6.032303482330763,3.0133644504202426,\N,\N,65535,\N,169,1384699117,0,\N
11/17/13,14:38:38,0,\N,\N,\N,\N,-42.90398970478208,-56.27144403555452,1.2808318717434852,-2.6505484629302067,0.3271315462263228,0.3026969366984022,3.0323468079496916,\N,\N,65535,\N,84,1384699118,0,\N
11/17/13,14:38:39,0,\N,\N,\N,\N,-42.90398970478208,-56.27144403555452,1.359949993296603,-2.7314069132297263,0.22320414322677787,0.19876953369885725,3.048405196856742,\N,\N,65535,\N,195,1384699119,0,\N
11/17/13,14:38:40,0,\N,\N,\N,\N,-42.90398970478208,-56.27144403555452,1.3759980076356038,-2.8990993624076755,0.09402324816439617,0.06958863863647555,3.05038782398574,\N,\N,65535,\N,203,1384699120,0,\N
11/17/13,14:38:41,0,\N,\N,\N,\N,-42.90398970478208,-56.27144403555452,1.3151052327261412,2.9329912786275196,5.980060463424979,5.955625853897058,3.0818595187845808,\N,\N,65535,\N,211,1384699121,0,\N
11/17/13,14:38:42,0,\N,\N,\N,\N,-42.90398970478208,-56.27144403555452,1.3389076522472156,3.135305411093476,6.143254909010813,6.118820299482892,3.1148873157696446,\N,\N,65535,\N,211,1384699122,0,\N
11/17/13,14:38:43,0,\N,\N,\N,\N,-42.90398970478208,-56.27144403555452,1.321931606430932,-2.988259231204896,6.280404775168778,6.255970165640857,3.1283972080129776,\N,\N,65535,\N,196,1384699123,0,\N
11/17/13,14:38:44,0,\N,\N,\N,\N,-42.90398970478208,-56.27144403555452,1.364609962587542,2.8664354685405566,5.87197625161844,5.847541642090519,3.1282970841314333,\N,\N,65535,\N,128,1384699124,0,\N
11/17/13,14:38:45,0,\N,\N,\N,\N,-42.90398970478208,-56.27144403555452,1.364745669008491,-2.9028992848742967,0.07765925728054514,0.053224647752624525,3.1295457510237923,\N,\N,65535,\N,197,1384699125,0,\N
11/17/13,14:38:46,0,\N,\N,\N,\N,-42.90398970478208,-56.27144403555452,1.3424603560982904,-2.83160029407849,0.17813780445098978,0.15370319492306916,3.0799053508357725,\N,\N,65535,\N,211,1384699126,0,\N
11/17/13,14:38:47,0,\N,\N,\N,\N,-42.90398970478208,-56.27144403555452,1.3956697286267654,3.0744198944456134,6.108923057138475,6.084488447610554,3.040694327043552,\N,\N,65535,\N,216,1384699127,0,\N
11/17/13,14:38:48,0,\N,\N,\N,\N,-42.90398970478208,-56.27144403555452,1.3889778610145365,-2.711332841526608,0.26323510612193474,0.23880049659401414,3.0189350441555303,\N,\N,65535,\N,140,1384699128,0,\N
11/17/13,14:38:49,0,\N,\N,\N,\N,-42.90398970478208,-56.27144403555452,1.3437965724862209,-2.9963852793018115,6.269312230320576,6.244877620792655,3.017947810262776,\N,\N,65535,\N,182,1384699129,0,\N
11/17/13,14:38:50,0,\N,\N,\N,\N,-42.90398970478208,-56.27144403555452,1.3030912716965632,-2.999900362509038,6.275549425170149,6.251114815642228,3.042798597515813,\N,\N,65535,\N,207,1384699130,0,\N
11/17/13,14:38:51,0,\N,\N,\N,\N,-42.90398970478208,-56.27144403555452,1.37040753582724,-3.0212625553595394,6.271520446425685,6.247085836897764,3.0729838855574814,\N,\N,65535,\N,213,1384699131,0,\N
11/17/13,14:38:52,0,\N,\N,\N,\N,-42.90398970478208,-56.27144403555452,1.3123181738324763,2.8670969878748016,5.930729677808001,5.90629506828008,3.063711832797476,\N,\N,65535,\N,145,1384699132,0,\N
11/17/13,14:38:53,0,\N,\N,\N,\N,-42.90398970478208,-56.27144403555452,1.4330929068904237,2.7890065334846588,5.8149345446517104,5.79049993512379,3.0502388702224335,\N,\N,65535,\N,83,1384699133,0,\N
11/17/13,14:38:54,0,\N,\N,\N,\N,-42.90398970478208,-56.27144403555452,1.3133704760292302,-2.759511894188555,0.2555731004187992,0.2311384908908786,3.0584758175304847,\N,\N,65535,\N,83,1384699134,0,\N
11/17/13,14:38:55,0,\N,\N,\N,\N,-42.90398970478208,-56.27144403555452,1.3334763029924863,3.0905004433964445,6.1569730967482865,6.132538487220366,3.0542713497833582,\N,\N,65535,\N,171,1384699135,0,\N
11/17/13,14:38:56,0,\N,\N,\N,\N,-42.90398970478208,-56.27144403555452,1.3859710911557768,-2.8102697132004537,0.2389160332105907,0.2144814236826701,3.0629426065855396,\N,\N,65535,\N,177,1384699136,0,\N
11/17/13,14:38:57,0,\N,\N,\N,\N,-42.90398970478208,-56.27144403555452,1.3917365815210545,-2.835419851231917,0.22276087533928698,0.19832626581136636,3.0752732997096257,\N,\N,65535,\N,143,1384699137,0,\N
11/17/13,14:38:58,0,\N,\N,\N,\N,-42.90398970478208,-56.27144403555452,1.4136011461283309,-2.814734299185852,0.27368171837009736,0.24924710884217674,3.0999392452771777,\N,\N,65535,\N,191,1384699138,0,\N
11/17/13,14:38:59,0,\N,\N,\N,\N,-42.90398970478208,-56.27144403555452,1.281946748002814,3.1318202250144473,6.26917079332037,6.244736183792449,3.0981901328581887,\N,\N,65535,\N,83,1384699139,0,\N
11/17/13,14:39:00,0,\N,\N,\N,\N,-42.90398970478208,-56.27144403555452,1.4137270798054398,-2.9077136783156075,0.1787678725786017,0.15433326305068107,3.096862739640282,\N,\N,65535,\N,83,1384699140,0,\N
11/17/13,14:39:01,0,\N,\N,\N,\N,-42.90398970478208,-56.27144403555452,1.3456741340166682,2.8945598099018928,6.052844350147125,6.028409740619204,3.050857860659142,\N,\N,65535,\N,157,1384699141,0,\N
11/17/13,14:39:02,0,\N,\N,\N,\N,-42.90398970478208,-56.27144403555452,1.3211610691347253,-2.8717781481529303,0.26993765617105175,0.24550304664313113,3.028187627431223,\N,\N,65535,\N,145,1384699142,0,\N
11/17/13,14:39:03,0,\N,\N,\N,\N,-42.90398970478208,-56.27144403555452,1.3393215044505595,-3.057941468617795,0.12896239945064597,0.10452778992272535,2.9892457200820695,\N,\N,65535,\N,83,1384699143,0,\N
11/17/13,14:39:04,0,\N,\N,\N,\N,-42.90398970478208,-56.27144403555452,1.3789236363010242,-2.758049039098448,0.44727826155481937,0.4228436520268988,2.955215126142688,\N,\N,65535,\N,183,1384699144,0,\N
11/17/13,14:39:05,0,\N,\N,\N,\N,-42.90398970478208,-56.27144403555452,1.3235002285801378,3.0764605072621936,0.05009027073410883,0.025655661206188216,2.9060971710075885,\N,\N,65535,\N,202,1384699145,0,\N
11/17/13,14:39:06,0,\N,\N,\N,\N,-42.90398970478208,-56.27144403555452,1.3419083915620413,3.0584772394138087,0.07633525405733946,0.05190064452941885,2.8887698219219775,\N,\N,65535,\N,83,1384699146,0,\N
11/17/13,14:39:07,0,\N,\N,\N,\N,-42.90398970478208,-56.27144403555452,1.2864917279059693,-3.0993956629231456,0.19378237026430084,0.16934776073638022,2.8992627490642606,\N,\N,65535,\N,83,1384699147,0,\N
11/17/13,14:39:08,0,\N,\N,\N,\N,-42.90398970478208,-56.27144403555452,1.3484121666229445,-3.008324596584938,0.2792461034094401,0.2548114938815195,2.9274578973741168,\N,\N,65535,\N,195,1384699148,0,\N
11/17/13,14:39:09,0,\N,\N,\N,\N,-42.90398970478208,-56.27144403555452,1.4086073131981112,-3.0458751847638283,0.2771461051624627,0.2527114956345421,2.7764551047764705,\N,\N,65535,\N,205,1384699149,0,\N
11/17/13,14:39:10,0,\N,\N,\N,\N,-42.90398970478208,-56.27144403555452,1.3280243982030397,-2.9977339193782653,0.30095957070009555,0.27652496117217495,2.711095584966955,\N,\N,65535,\N,155,1384699150,0,\N
11/17/13,14:39:11,0,\N,\N,\N,\N,-42.90398970478208,-56.27144403555452,1.3225216193386649,3.12745647392207,0.16700508286015653,0.1425704733322359,2.683910235382933,\N,\N,65535,\N,87,1384699151,0,\N
11/17/13,14:39:12,0,\N,\N,\N,\N,-42.90398970478208,-56.27144403555452,1.3755731527867292,-2.86421782341354,0.42070883289120503,0.39627422336328444,2.6584184660945898,\N,\N,65535,\N,134,1384699152,0,\N
11/17/13,14:39:13,0,\N,\N,\N,\N,-42.90398970478208,-56.27144403555452,1.2764103306458172,-3.0867685878610116,0.23758864407672048,0.21315403454879986,2.612500767162154,\N,\N,65535,\N,82,1384699153,0,\N
11/17/13,14:39:14,0,\N,\N,\N,\N,-42.90398970478208,-56.27144403555452,1.4881301699739498,-3.0689692591411117,0.23562804895376144,0.21119343942584082,2.6918326852699437,\N,\N,65535,\N,182,1384699154,0,\N
11/17/13,14:39:15,0,\N,\N,\N,\N,-42.90398970478208,-56.27144403555452,1.3753514018383814,2.9850937487816696,0.028733161361603504,0.00429855183368289,2.7641987651717885,\N,\N,65535,\N,199,1384699155,0,\N
11/17/13,14:39:16,0,\N,\N,\N,\N,-42.90398970478208,-56.27144403555452,1.300461763049282,3.0630117755800477,0.10046761020703904,0.07603300067911843,2.808216349028839,\N,\N,65535,\N,204,1384699156,0,\N
11/17/13,14:39:17,0,\N,\N,\N,\N,-42.90398970478208,-56.27144403555452,1.383959941812982,-2.6623810525819187,0.6098832226930126,0.585448613165092,2.820340921121626,\N,\N,65535,\N,176,1384699157,0,\N
11/17/13,14:39:18,0,\N,\N,\N,\N,-42.90398970478208,-56.27144403555452,1.445211714561192,-2.3068170385015327,1.0134025278968657,0.9889679183689452,2.8439895385032266,\N,\N,65535,\N,201,1384699158,0,\N
11/17/13,14:39:19,0,\N,\N,\N,\N,-42.90398970478208,-56.27144403555452,1.323273612881747,2.8160516258165353,6.239231770850485,6.214797161322564,2.9556420021489633,\N,\N,65535,\N,212,1384699159,0,\N
11/17/13,14:39:20,0,\N,\N,\N,\N,-42.90398970478208,-56.27144403555452,1.284380387709613,-3.0172217467515834,0.3161000820159254,0.2916654724880048,2.9766010550915265,\N,\N,65535,\N,83,1384699160,0,\N
11/17/13,14:39:21,0,\N,\N,\N,\N,-42.90398970478208,-56.27144403555452,1.3770249426496064,-2.8531808976864923,0.43657561745889933,0.41214100793097874,2.958388423689738,\N,\N,65535,\N,181,1384699161,0,\N
11/17/13,14:39:22,0,\N,\N,\N,\N,-42.90398970478208,-56.27144403555452,1.3907350040606663,-2.9993964747897466,0.30734563832202155,0.28291102879410096,2.949267264008475,\N,\N,65535,\N,84,1384699162,0,\N
11/17/13,14:39:23,0,\N,\N,\N,\N,-42.90398970478208,-56.27144403555452,1.4280101818675273,-2.9742452891817486,0.35793801705597433,0.33350340752805374,2.9408983574479537,\N,\N,65535,\N,191,1384699163,0,\N
11/17/13,14:39:24,0,\N,\N,\N,\N,-42.90398970478208,-56.27144403555452,1.3797787612868107,-3.0337351697935584,0.33065399179319677,0.3062193822652762,2.9040280389645203,\N,\N,65535,\N,201,1384699164,0,\N
11/17/13,14:39:25,0,\N,\N,\N,\N,-42.90398970478208,-56.27144403555452,1.311941449308055,3.0188432558452614,0.12744073272771259,0.10300612319979197,2.891558908705111,\N,\N,65535,\N,173,1384699165,0,\N
11/17/13,14:39:26,0,\N,\N,\N,\N,-42.90398970478208,-56.27144403555452,1.3169059703512278,-2.958155393344556,0.37874701541060307,0.3543124058826825,2.9046459918274468,\N,\N,65535,\N,155,1384699166,0,\N
11/17/13,14:39:27,0,\N,\N,\N,\N,-42.90398970478208,-56.27144403555452,1.3954366116341523,-2.8875714681851594,0.3808848288254557,0.3564502192975351,2.942329112450179,\N,\N,65535,\N,189,1384699167,0,\N
11/17/13,14:39:28,0,\N,\N,\N,\N,-42.90398970478208,-56.27144403555452,1.3204564945896,2.873105846550052,6.136286173923364,6.111851564395443,2.9701826230101527,\N,\N,65535,\N,201,1384699168,0,\N
11/17/13,14:39:29,0,\N,\N,\N,\N,-42.90398970478208,-56.27144403555452,1.2928950827588084,-3.1360267671209017,0.09181320658382974,0.06737859705590914,2.978356924490928,\N,\N,65535,\N,201,1384699169,0,\N
11/17/13,14:39:30,0,\N,\N,\N,\N,-42.90398970478208,-56.27144403555452,1.3893482809820064,-3.002203043929205,0.2026509756209471,0.1782163660930265,2.977897844797579,\N,\N,65535,\N,161,1384699170,0,\N
11/17/13,14:39:31,0,\N,\N,\N,\N,-42.90398970478208,-56.27144403555452,1.3949372334947665,-2.821433829126179,0.3374296234841095,0.3129950139561889,2.9439744078744634,\N,\N,65535,\N,183,1384699171,0,\N
11/17/13,14:39:32,0,\N,\N,\N,\N,-42.90398970478208,-56.27144403555452,1.3702390975764496,2.8365402229449406,6.0570563498099785,6.032621740282058,2.9067757306597684,\N,\N,65535,\N,185,1384699172,0,\N
11/17/13,14:39:33,0,\N,\N,\N,\N,-42.90398970478208,-56.27144403555452,1.3698263559174173,-3.1048418859947633,0.09702510560896391,0.0725904960810433,2.8514797363909463,\N,\N,65535,\N,107,1384699173,0,\N
11/17/13,14:39:34,0,\N,\N,\N,\N,-42.90398970478208,-56.27144403555452,1.4093083111487437,-3.0451734912432267,0.10481620463472377,0.08038159510680316,2.800274806369159,\N,\N,65535,\N,179,1384699174,0,\N
11/17/13,14:39:35,0,\N,\N,\N,\N,-42.90398970478208,-56.27144403555452,1.3533606968945553,-2.88174228812875,0.2525642734456498,0.2281296639177292,2.762565712835777,\N,\N,65535,\N,201,1384699175,0,\N
11/17/13,14:39:36,0,\N,\N,\N,\N,-42.90398970478208,-56.27144403555452,1.4002950236522558,-2.783805814473917,0.34672518245245604,0.32229057292453545,2.7478226280523312,\N,\N,65535,\N,208,1384699176,0,\N
11/17/13,14:39:37,0,\N,\N,\N,\N,-42.90398970478208,-56.27144403555452,1.4171434396424842,2.99534022842367,6.181333429874729,6.156898820346808,2.711122115879229,\N,\N,65535,\N,202,1384699177,0,\N
11/17/13,14:39:38,0,\N,\N,\N,\N,-42.90398970478208,-56.27144403555452,1.3955903910055012,2.9475968262428967,6.125329181546194,6.100894572018273,2.6960893712322345,\N,\N,65535,\N,215,1384699178,0,\N
11/17/13,14:39:39,0,\N,\N,\N,\N,-42.90398970478208,-56.27144403555452,1.4227702399470532,-3.0517874342596207,0.07969571507866191,0.05526110555074129,2.6896822062808154,\N,\N,65535,\N,218,1384699179,0,\N
11/17/13,14:39:40,0,\N,\N,\N,\N,-42.90398970478208,-56.27144403555452,1.4816837418820847,3.0161425696689155,6.155883649628274,6.131449040100353,2.6845307038503448,\N,\N,65535,\N,219,1384699180,0,\N
11/17/13,14:39:41,0,\N,\N,\N,\N,-42.90398970478208,-56.27144403555452,1.4609405117917675,2.826724253953879,5.939798163077745,5.915363553549824,2.7659909605743156,\N,\N,65535,\N,222,1384699181,0,\N
11/17/13,14:39:42,0,\N,\N,\N,\N,-42.90398970478208,-56.27144403555452,1.3873579645386738,3.104347004493836,6.180729040951725,6.156294431423804,2.7608774480038614,\N,\N,65535,\N,222,1384699182,0,\N
11/17/13,14:39:43,0,\N,\N,\N,\N,-42.90398970478208,-56.27144403555452,1.446911797439723,-3.0285764242101565,0.014103983777201456,6.272854681428867,2.78945992898978,\N,\N,65535,\N,177,1384699183,0,\N
11/17/13,14:39:44,0,\N,\N,\N,\N,-42.90398970478208,-56.27144403555452,1.4204365263943943,-3.101133612838765,6.242630512608401,6.21819590308048,2.7842321205989826,\N,\N,65535,\N,204,1384699184,0,\N
11/17/13,14:39:45,0,\N,\N,\N,\N,-42.90398970478208,-56.27144403555452,1.5155779889295893,2.524193860078049,5.603862922813921,5.579428313286,2.7894563321554706,\N,\N,65535,\N,208,1384699185,0,\N
11/17/13,14:39:46,0,\N,\N,\N,\N,-42.90398970478208,-56.27144403555452,1.3504313385814275,3.109570804078353,6.169763080009522,6.145328470481601,2.707434988600406,\N,\N,65535,\N,213,1384699186,0,\N
11/17/13,14:39:47,0,\N,\N,\N,\N,-42.90398970478208,-56.27144403555452,1.3453114840870652,-2.9846747905270257,0.0678801133643159,0.0434455038363953,2.758671993681932,\N,\N,65535,\N,219,1384699187,0,\N
11/17/13,14:39:48,0,\N,\N,\N,\N,-42.90398970478208,-56.27144403555452,1.5290191767633685,-2.484179192836327,0.5569377246176499,0.5325031150897293,2.7675711922706245,\N,\N,65535,\N,217,1384699188,0,\N
11/17/13,14:39:49,0,\N,\N,\N,\N,-42.90398970478208,-56.27144403555452,1.4066140165683376,2.9052689309892608,5.999144765456115,5.974710155928194,2.781609301433811,\N,\N,65535,\N,172,1384699189,0,\N
11/17/13,14:39:50,0,\N,\N,\N,\N,-42.90398970478208,-56.27144403555452,1.476333419454804,2.7421144357481047,5.8146703596335465,5.790235750105626,2.7997703623698214,\N,\N,65535,\N,205,1384699190,0,\N
11/17/13,14:39:51,0,\N,\N,\N,\N,-42.90398970478208,-56.27144403555452,1.4487923535341483,-2.777909473326546,0.26553619873787426,0.24110158920995364,2.7957331206696705,\N,\N,65535,\N,215,1384699191,0,\N
11/17/13,14:39:52,0,\N,\N,\N,\N,-42.90398970478208,-56.27144403555452,1.442777805650415,3.0123883312115574,6.11864890969185,6.094214300163929,2.7348870954918207,\N,\N,65535,\N,82,1384699192,0,\N
11/17/13,14:39:53,0,\N,\N,\N,\N,-42.90398970478208,-56.27144403555452,1.45518431708611,-2.7382116762217437,0.3389627529759801,0.3145281434480595,2.7000157076398774,\N,\N,65535,\N,187,1384699193,0,\N
11/17/13,14:39:54,0,\N,\N,\N,\N,-42.90398970478208,-56.27144403555452,1.499832182085466,2.7923645793561325,5.9030558294405715,5.878621219912651,2.690171572184624,\N,\N,65535,\N,204,1384699194,0,\N
11/17/13,14:39:55,0,\N,\N,\N,\N,-42.90398970478208,-56.27144403555452,1.3323946921535508,3.0420582512567313,6.144300261335685,6.119865651807764,2.666786559204679,\N,\N,65535,\N,83,1384699195,0,\N
11/17/13,14:39:56,0,\N,\N,\N,\N,-42.90398970478208,-56.27144403555452,1.3841415168009175,3.0459253293797834,6.122639833069379,6.098205223541458,2.6778799002943527,\N,\N,65535,\N,186,1384699196,0,\N
11/17/13,14:39:57,0,\N,\N,\N,\N,-42.90398970478208,-56.27144403555452,1.4746273469664983,2.8719012228175784,5.885309798919025,5.860875189391104,2.6861040603464277,\N,\N,65535,\N,151,1384699197,0,\N
11/17/13,14:39:58,0,\N,\N,\N,\N,-42.90398970478208,-56.27144403555452,1.513800675046411,2.726373521425158,5.737591936819967,5.713157327292046,2.6818904691743373,\N,\N,65535,\N,192,1384699198,0,\N
11/17/13,14:39:59,0,\N,\N,\N,\N,-42.90398970478208,-56.27144403555452,1.4661327863047007,2.893062602574897,5.937980132696261,5.91354552316834,2.6866548457632744,\N,\N,65535,\N,203,1384699199,0,\N
11/17/13,14:40:00,0,\N,\N,\N,\N,-42.90398970478208,-56.27144403555452,1.3532690521669801,3.1026221717980427,6.170910223334711,6.14647561380679,2.7275315199483314,\N,\N,65535,\N,208,1384699200,0,\N
11/17/13,14:40:01,0,\N,\N,\N,\N,-42.90398970478208,-56.27144403555452,1.3954470127495502,3.0761605200069586,6.135303153645751,6.11086854411783,2.750913044863176,\N,\N,65535,\N,82,1384699201,0,\N
11/17/13,14:40:02,0,\N,\N,\N,\N,-42.90398970478208,-56.27144403555452,1.3990675461413242,-3.0508465230601582,6.274359496948305,6.249924887420384,2.763145561178872,\N,\N,65535,\N,178,1384699202,0,\N
11/17/13,14:40:03,0,\N,\N,\N,\N,-42.90398970478208,-56.27144403555452,1.4317074354884525,-2.9263892443914252,0.1092273248828321,0.0847927153549115,2.773655980690911,\N,\N,65535,\N,189,1384699203,0,\N
11/17/13,14:40:04,0,\N,\N,\N,\N,-42.90398970478208,-56.27144403555452,1.421018408584715,-3.0976692020996355,6.246520925689198,6.222086316161277,2.754768935108562,\N,\N,65535,\N,83,1384699204,0,\N
11/17/13,14:40:05,0,\N,\N,\N,\N,-42.90398970478208,-56.27144403555452,1.3666890960795497,-2.957634110911804,0.07860962441061346,0.05417501488269285,2.6947233773728483,\N,\N,65535,\N,83,1384699205,0,\N
11/17/13,14:40:06,0,\N,\N,\N,\N,-42.90398970478208,-56.27144403555452,1.4263908703943058,3.04216338612485,6.119039445672727,6.094604836144806,2.6510730865704293,\N,\N,65535,\N,183,1384699206,0,\N
11/17/13,14:40:07,0,\N,\N,\N,\N,-42.90398970478208,-56.27144403555452,1.3921685495899103,2.7944582615829736,5.918327591331552,5.893892981803631,2.6247943493387975,\N,\N,65535,\N,203,1384699207,0,\N
11/17/13,14:40:08,0,\N,\N,\N,\N,-42.90398970478208,-56.27144403555452,1.373258149158076,-3.0654210492666083,0.006577129585922492,6.265327827237588,2.60049247441877,\N,\N,65535,\N,209,1384699208,0,\N
11/17/13,14:40:09,0,\N,\N,\N,\N,-42.90398970478208,-56.27144403555452,1.4112223352963844,-2.7787353451881076,0.2738722985311717,0.24943768900325106,2.6007151307618934,\N,\N,65535,\N,215,1384699209,0,\N
11/17/13,14:40:10,0,\N,\N,\N,\N,-42.90398970478208,-56.27144403555452,1.4328730824476454,-2.8995349861439377,0.19247294024523828,0.16803833071731766,2.6248079602890724,\N,\N,65535,\N,218,1384699210,0,\N
11/17/13,14:40:11,0,\N,\N,\N,\N,-42.90398970478208,-56.27144403555452,1.3721524645886058,-3.064676474846428,0.0655016084460549,0.04106699891813429,2.6685952259532995,\N,\N,65535,\N,181,1384699211,0,\N
11/17/13,14:40:12,0,\N,\N,\N,\N,-42.90398970478208,-56.27144403555452,1.4708867428165688,-2.034198282943647,1.0951637279260038,1.0707291183980832,2.7268245036013905,\N,\N,65535,\N,184,1384699212,0,\N
11/17/13,14:40:13,0,\N,\N,\N,\N,-42.90398970478208,-56.27144403555452,1.4327773315748684,-3.099992498075476,0.03394579201299352,0.009511182485072904,2.7751721437671075,\N,\N,65535,\N,203,1384699213,0,\N
11/17/13,14:40:14,0,\N,\N,\N,\N,-42.90398970478208,-56.27144403555452,1.2900150853887533,-2.876612729755801,0.20017427149133887,0.17573966196341825,2.7854031494920997,\N,\N,65535,\N,200,1384699214,0,\N
11/17/13,14:40:15,0,\N,\N,\N,\N,-42.90398970478208,-56.27144403555452,1.4464827041233443,-2.819846440196113,0.23181235039087966,0.20737774086295904,2.7942325074482754,\N,\N,65535,\N,189,1384699215,0,\N
11/17/13,14:40:16,0,\N,\N,\N,\N,-42.90398970478208,-56.27144403555452,1.4085120448992852,2.79751095852132,5.9461224763442875,5.921687866816367,2.7732520823335807,\N,\N,65535,\N,153,1384699216,0,\N
11/17/13,14:40:17,0,\N,\N,\N,\N,-42.90398970478208,-56.27144403555452,1.3479061940263544,-3.0377800496185303,0.06424359011174097,0.03980898058382035,2.7278295552914438,\N,\N,65535,\N,199,1384699217,0,\N
11/17/13,14:40:18,0,\N,\N,\N,\N,-42.90398970478208,-56.27144403555452,1.4140388118569052,-2.8251347643157088,0.2230191585519132,0.19858454902399258,2.7007726675427093,\N,\N,65535,\N,157,1384699218,0,\N
11/17/13,14:40:19,0,\N,\N,\N,\N,-42.90398970478208,-56.27144403555452,1.4748840714699398,-2.6838562109603945,0.3969864950582621,0.3725518855303415,2.713738792232238,\N,\N,65535,\N,172,1384699219,0,\N
11/17/13,14:40:20,0,\N,\N,\N,\N,-42.90398970478208,-56.27144403555452,1.408607775879892,-2.779614064694864,0.26170359757057426,0.23726898804265367,2.7009097449738304,\N,\N,65535,\N,183,1384699220,0,\N
11/17/13,14:40:21,0,\N,\N,\N,\N,-42.90398970478208,-56.27144403555452,1.354130651418596,-2.889694657835819,0.22481785854540026,0.20038324901747964,2.6918816328055843,\N,\N,65535,\N,162,1384699221,0,\N
11/17/13,14:40:22,0,\N,\N,\N,\N,-42.90398970478208,-56.27144403555452,1.4834780824866847,3.04965218452648,6.253790213634572,6.229355604106651,2.7109359568702636,\N,\N,65535,\N,143,1384699222,0,\N
11/17/13,14:40:23,0,\N,\N,\N,\N,-42.90398970478208,-56.27144403555452,1.409977542733204,2.7558818010935298,5.887084008188105,5.862649398660184,2.729916743678382,\N,\N,65535,\N,197,1384699223,0,\N
11/17/13,14:40:24,0,\N,\N,\N,\N,-42.90398970478208,-56.27144403555452,1.4491919791395096,-2.85858515848394,0.12067820291618259,0.09624359338826197,2.7606104492453727,\N,\N,65535,\N,206,1384699224,0,\N
11/17/13,14:40:25,0,\N,\N,\N,\N,-42.90398970478208,-56.27144403555452,1.397634439468349,2.5657055917249796,5.627446381399133,5.603011771871212,2.8041442842806257,\N,\N,65535,\N,202,1384699225,0,\N
11/17/13,14:40:26,0,\N,\N,\N,\N,-42.90398970478208,-56.27144403555452,1.326090602399387,-3.047942295854459,6.261890297821468,6.237455688293547,2.8264363440212312,\N,\N,65535,\N,175,1384699226,0,\N
11/17/13,14:40:27,0,\N,\N,\N,\N,-42.90398970478208,-56.27144403555452,1.475287270503264,2.484497371245817,5.535631006300225,5.511196396772304,2.8190165970565193,\N,\N,65535,\N,171,1384699227,0,\N
11/17/13,14:40:28,0,\N,\N,\N,\N,-42.90398970478208,-56.27144403555452,1.4497190333390002,2.0951405400552328,5.139299652782523,5.114865043254603,2.8154964648860803,\N,\N,65535,\N,136,1384699228,0,\N
11/17/13,14:40:29,0,\N,\N,\N,\N,-42.90398970478208,-56.27144403555452,1.3526076241831921,2.761807291935764,5.7999036452162525,5.775469035688332,2.7843600362552383,\N,\N,65535,\N,83,1384699229,0,\N
11/17/13,14:40:30,0,\N,\N,\N,\N,-42.90398970478208,-56.27144403555452,1.4361608859250916,2.811505442293372,5.842961227909233,5.818526618381312,2.746955223022109,\N,\N,65535,\N,170,1384699230,0,\N
11/17/13,14:40:31,0,\N,\N,\N,\N,-42.90398970478208,-56.27144403555452,1.475945179402599,2.3097768541213424,5.391879913360825,5.367445303832904,2.7056588201278524,\N,\N,65535,\N,164,1384699231,0,\N
11/17/13,14:40:32,0,\N,\N,\N,\N,-42.90398970478208,-56.27144403555452,1.5032058347089163,2.6202246881995532,5.718348510330958,5.693913900803037,2.7002869913931558,\N,\N,65535,\N,199,1384699232,0,\N
11/17/13,14:40:33,0,\N,\N,\N,\N,-42.90398970478208,-56.27144403555452,1.2785165416457651,2.948859892726692,6.081691026581759,6.057256417053838,2.7002450535208573,\N,\N,65535,\N,83,1384699233,0,\N
11/17/13,14:40:34,0,\N,\N,\N,\N,-42.90398970478208,-56.27144403555452,1.4719090175057539,-2.70366569418338,0.4062033273478501,0.3817687178199295,2.708426473577069,\N,\N,65535,\N,147,1384699234,0,\N
11/17/13,14:40:35,0,\N,\N,\N,\N,-42.90398970478208,-56.27144403555452,1.4652606996650563,-2.8646452400174676,0.2826845617487728,0.25824995222085223,2.7176546739871656,\N,\N,65535,\N,128,1384699235,0,\N
11/17/13,14:40:36,0,\N,\N,\N,\N,-42.90398970478208,-56.27144403555452,1.41848591467238,-3.094278703948539,0.09985196497682813,0.07541735544890753,2.756046474670535,\N,\N,65535,\N,204,1384699236,0,\N
11/17/13,14:40:37,0,\N,\N,\N,\N,-42.90398970478208,-56.27144403555452,1.3708533064138995,3.1035876136203595,0.03607944382029269,0.011644834292372076,2.7737509927832233,\N,\N,65535,\N,210,1384699237,0,\N
11/17/13,14:40:38,0,\N,\N,\N,\N,-42.90398970478208,-56.27144403555452,1.4233374749062981,-2.7659592537905153,0.36525830058573644,0.34082369105781585,2.778571767458204,\N,\N,65535,\N,149,1384699238,0,\N
11/17/13,14:40:39,0,\N,\N,\N,\N,-42.90398970478208,-56.27144403555452,1.3535906711534857,-2.7100023750394096,0.39293303628282616,0.3684984267549056,2.785233489383639,\N,\N,65535,\N,102,1384699239,0,\N
11/17/13,14:40:40,0,\N,\N,\N,\N,-42.90398970478208,-56.27144403555452,1.4004028082559437,-2.6624617890889644,0.43606332866656267,0.4116287191386421,2.7815787590311447,\N,\N,65535,\N,199,1384699240,0,\N
11/17/13,14:40:41,0,\N,\N,\N,\N,-42.90398970478208,-56.27144403555452,1.4045399716071199,-2.7655089615365207,0.3630381355581715,0.3386035260302509,2.7803281400127937,\N,\N,65535,\N,207,1384699241,0,\N
11/17/13,14:40:42,0,\N,\N,\N,\N,-42.90398970478208,-56.27144403555452,1.3557896263838163,-3.057366588962353,0.15579156903933317,0.13135695951141255,2.7762282759338173,\N,\N,65535,\N,170,1384699242,0,\N
11/17/13,14:40:43,0,\N,\N,\N,\N,-42.90398970478208,-56.27144403555452,1.4197568730588932,-2.883960803494891,0.2976054146979565,0.2731708051700359,2.7813311977215927,\N,\N,65535,\N,164,1384699243,0,\N
11/17/13,14:40:44,0,\N,\N,\N,\N,-42.90398970478208,-56.27144403555452,1.4341924814510962,-2.632728968528094,0.5328245439933548,0.5083899344654341,2.811684840884219,\N,\N,65535,\N,197,1384699244,0,\N
11/17/13,14:40:45,0,\N,\N,\N,\N,-42.90398970478208,-56.27144403555452,1.4241007643588595,-2.9181206924404886,0.2632057674779407,0.2387711579500201,2.8388146831503898,\N,\N,65535,\N,88,1384699245,0,\N
11/17/13,14:40:46,0,\N,\N,\N,\N,-42.90398970478208,-56.27144403555452,1.3235493696224079,2.994572227502844,6.193138232832469,6.168703623304548,2.84990892472263,\N,\N,65535,\N,168,1384699246,0,\N
11/17/13,14:40:47,0,\N,\N,\N,\N,-42.90398970478208,-56.27144403555452,1.365062726165929,-2.944734392437664,0.2305732358466591,0.20613862631873847,2.8617506700556916,\N,\N,65535,\N,131,1384699247,0,\N
11/17/13,14:40:48,0,\N,\N,\N,\N,-42.90398970478208,-56.27144403555452,1.4178879411942862,-2.972625167472907,0.21965146416845516,0.19521685464053454,2.8342824871359062,\N,\N,65535,\N,191,1384699248,0,\N
11/17/13,14:40:49,0,\N,\N,\N,\N,-42.90398970478208,-56.27144403555452,1.4172019550829502,2.9317561640402854,6.165328775868321,6.1408941663404,2.793039659234668,\N,\N,65535,\N,145,1384699249,0,\N
11/17/13,14:40:50,0,\N,\N,\N,\N,-42.90398970478208,-56.27144403555452,1.3399159890154695,2.9099397764867203,6.165486708684231,6.14105209915631,2.7553528108197187,\N,\N,65535,\N,83,1384699250,0,\N
11/17/13,14:40:51,0,\N,\N,\N,\N,-42.90398970478208,-56.27144403555452,1.331986793271349,-2.77270542588932,0.41542460834250344,0.39098999881458285,2.808683648166168,\N,\N,65535,\N,173,1384699251,0,\N
11/17/13,14:40:52,0,\N,\N,\N,\N,-42.90398970478208,-56.27144403555452,1.3078690932050394,-2.807511260713145,0.38288191206868644,0.35844730254076584,2.7895646289911875,\N,\N,65535,\N,172,1384699252,0,\N
11/17/13,14:40:53,0,\N,\N,\N,\N,-42.90398970478208,-56.27144403555452,1.3738924482334105,3.094370816888546,0.015593723486784228,6.27434442113845,2.7852043298463807,\N,\N,65535,\N,198,1384699253,0,\N
11/17/13,14:40:54,0,\N,\N,\N,\N,-42.90398970478208,-56.27144403555452,1.3819922168426892,-2.8867278900457123,0.26642295811317296,0.24198834858525237,2.7593042344595697,\N,\N,65535,\N,196,1384699254,0,\N
11/17/13,14:40:55,0,\N,\N,\N,\N,-42.90398970478208,-56.27144403555452,1.3955310544177284,3.0734512798229416,6.23527980452861,6.210845195000689,2.7535079635465314,\N,\N,65535,\N,83,1384699255,0,\N
11/17/13,14:40:56,0,\N,\N,\N,\N,-42.90398970478208,-56.27144403555452,1.3448338159830269,-2.9225499387592095,0.18265092593156942,0.1582163164036488,2.6746969610373923,\N,\N,65535,\N,177,1384699256,0,\N
11/17/13,14:40:57,0,\N,\N,\N,\N,-42.90398970478208,-56.27144403555452,1.3319995164497014,2.982630097159834,6.138525204519099,6.114090594991178,2.664908506924029,\N,\N,65535,\N,82,1384699257,0,\N
11/17/13,14:40:58,0,\N,\N,\N,\N,-42.90398970478208,-56.27144403555452,1.3367576162527919,2.9002178301774686,6.064078738746687,6.039644129218766,2.672269524597318,\N,\N,65535,\N,182,1384699258,0,\N
11/17/13,14:40:59,0,\N,\N,\N,\N,-42.90398970478208,-56.27144403555452,1.4139084788122704,-2.8619276039317216,0.23534343545188663,0.210908825923966,2.6912511044188845,\N,\N,65535,\N,182,1384699259,0,\N
11/17/13,14:41:00,0,\N,\N,\N,\N,-42.90398970478208,-56.27144403555452,1.358164117341588,-2.9015550169459807,0.1506532120327095,0.1262186025047889,2.696126186202643,\N,\N,65535,\N,182,1384699260,0,\N
11/17/13,14:41:01,0,\N,\N,\N,\N,-42.90398970478208,-56.27144403555452,1.4251290900077123,-2.864779566823587,0.208230526386519,0.1837959168585984,2.6990540377876244,\N,\N,65535,\N,195,1384699261,0,\N
11/17/13,14:41:02,0,\N,\N,\N,\N,-42.90398970478208,-56.27144403555452,1.4931561503409199,2.312677166562629,5.480024137518107,5.4555895279901865,2.6988235176350566,\N,\N,65535,\N,186,1384699262,0,\N
11/17/13,14:41:03,0,\N,\N,\N,\N,-42.90398970478208,-56.27144403555452,1.4354975447797171,-2.9758719850504836,0.17357911979183846,0.14914451026391784,2.6995172381220494,\N,\N,65535,\N,83,1384699263,0,\N
11/17/13,14:41:04,0,\N,\N,\N,\N,-42.90398970478208,-56.27144403555452,1.4507856145976072,-3.070136702021127,0.10596624701076968,0.08153163748284907,2.699628285870723,\N,\N,65535,\N,154,1384699264,0,\N
11/17/13,14:41:05,0,\N,\N,\N,\N,-42.90398970478208,-56.27144403555452,1.420167431506881,3.0971939619366897,0.007721753777171436,6.266472451428837,2.700061897117987,\N,\N,65535,\N,137,1384699265,0,\N
11/17/13,14:41:06,0,\N,\N,\N,\N,-42.90398970478208,-56.27144403555452,1.4343920397327468,-2.8881165597303853,0.2770959104415102,0.2526613009135896,2.6894644409434565,\N,\N,65535,\N,207,1384699266,0,\N
11/17/13,14:41:07,0,\N,\N,\N,\N,-42.90398970478208,-56.27144403555452,1.2860250774484423,3.027568043887422,6.244849451413831,6.22041484188591,2.7090642425680476,\N,\N,65535,\N,210,1384699267,0,\N
11/17/13,14:41:08,0,\N,\N,\N,\N,-42.90398970478208,-56.27144403555452,1.4865215218023289,-2.956071451970201,0.2675599563476621,0.24312534681974152,2.70907336015759,\N,\N,65535,\N,153,1384699268,0,\N
11/17/13,14:41:09,0,\N,\N,\N,\N,-42.90398970478208,-56.27144403555452,1.432728913742042,3.1393597425403432,0.10578919980737686,0.08135459027945624,2.6966105043964967,\N,\N,65535,\N,176,1384699269,0,\N
11/17/13,14:41:10,0,\N,\N,\N,\N,-42.90398970478208,-56.27144403555452,1.3888677096065973,-3.1364872611295933,0.1348923936792545,0.1104577841513339,2.696308641070187,\N,\N,65535,\N,204,1384699270,0,\N
11/17/13,14:41:11,0,\N,\N,\N,\N,-42.90398970478208,-56.27144403555452,1.4565820556794815,-3.027937788849768,0.2692959000623674,0.2448612905344468,2.7153949803818738,\N,\N,65535,\N,166,1384699271,0,\N
11/17/13,14:41:12,0,\N,\N,\N,\N,-42.90398970478208,-56.27144403555452,1.4274467047483537,-2.9060633414120898,0.37804249007447066,0.35360788054655007,2.7045219100565734,\N,\N,65535,\N,188,1384699272,0,\N
11/17/13,14:41:13,0,\N,\N,\N,\N,-42.90398970478208,-56.27144403555452,1.44811609295131,2.902125684495481,6.241374995833277,6.216940386305356,2.719175816740992,\N,\N,65535,\N,188,1384699273,0,\N
11/17/13,14:41:14,0,\N,\N,\N,\N,-42.90398970478208,-56.27144403555452,1.3865315186661764,-2.7061459145137277,0.5586379179122344,0.5342033083843137,2.7478087664575117,\N,\N,65535,\N,150,1384699274,0,\N
11/17/13,14:41:15,0,\N,\N,\N,\N,-42.90398970478208,-56.27144403555452,1.4576303456189779,-2.1451209850984814,1.1272716733840422,1.1028370638561216,2.7435309894691797,\N,\N,65535,\N,204,1384699275,0,\N
11/17/13,14:41:16,0,\N,\N,\N,\N,-42.90398970478208,-56.27144403555452,1.3875591670625216,-2.9365998220575826,0.3415122664309745,0.3170776569030539,2.761015965512911,\N,\N,65535,\N,83,1384699276,0,\N
11/17/13,14:41:17,0,\N,\N,\N,\N,-42.90398970478208,-56.27144403555452,1.3157943252781343,3.12278916304844,0.15030093961183005,0.12586633008390943,2.76902810108572,\N,\N,65535,\N,83,1384699277,0,\N
11/17/13,14:41:18,0,\N,\N,\N,\N,-42.90398970478208,-56.27144403555452,1.4936680150524348,-2.6835149656445116,0.5932267336784383,0.5687921241505176,2.773850418862675,\N,\N,65535,\N,154,1384699278,0,\N
11/17/13,14:41:19,0,\N,\N,\N,\N,-42.90398970478208,-56.27144403555452,1.4339077903185646,2.7475380341677127,6.057816267299482,6.033381657771561,2.7709703494687234,\N,\N,65535,\N,179,1384699279,0,\N
11/17/13,14:41:20,0,\N,\N,\N,\N,-42.90398970478208,-56.27144403555452,1.366170761713457,3.0740788413802798,0.051142579757486074,0.02670797022956546,2.7977945113246685,\N,\N,65535,\N,86,1384699280,0,\N
11/17/13,14:41:21,0,\N,\N,\N,\N,-42.90398970478208,-56.27144403555452,1.4055296184288353,-2.763284633671689,0.42514489390741145,0.40071028437949086,2.8135572747554627,\N,\N,65535,\N,196,1384699281,0,\N
11/17/13,14:41:22,0,\N,\N,\N,\N,-42.90398970478208,-56.27144403555452,1.4187816205186567,-2.9333808673159796,0.2537454516414174,0.22931084211349675,2.829829473047309,\N,\N,65535,\N,207,1384699282,0,\N
11/17/13,14:41:23,0,\N,\N,\N,\N,-42.90398970478208,-56.27144403555452,1.5162548298280438,2.5600932292476273,5.809112406817055,5.784677797289135,2.837897195003445,\N,\N,65535,\N,214,1384699283,0,\N
11/17/13,14:41:24,0,\N,\N,\N,\N,-42.90398970478208,-56.27144403555452,1.362284163662645,-3.10077381547248,0.1460892687250198,0.12165465919709917,2.850568131873358,\N,\N,65535,\N,140,1384699284,0,\N
11/17/13,14:41:25,0,\N,\N,\N,\N,-42.90398970478208,-56.27144403555452,1.3867425995932268,-2.2721570475011554,0.9076104742393272,0.8831758647114065,2.8554018528220007,\N,\N,65535,\N,196,1384699285,0,\N
11/17/13,14:41:26,0,\N,\N,\N,\N,-42.90398970478208,-56.27144403555452,1.4237750456541505,2.9949018183014284,0.01681802028768864,6.275568717939354,2.832470423052703,\N,\N,65535,\N,209,1384699286,0,\N
11/17/13,14:41:27,0,\N,\N,\N,\N,-42.90398970478208,-56.27144403555452,1.3674415820621308,2.984621950595057,0.0053872205356393366,6.264137918187305,2.8464919883162723,\N,\N,65535,\N,176,1384699287,0,\N
11/17/13,14:41:28,0,\N,\N,\N,\N,-42.90398970478208,-56.27144403555452,1.3932129351778815,-2.308510046616695,0.9430287435090876,0.918594133981167,2.8386565467772593,\N,\N,65535,\N,177,1384699288,0,\N
11/17/13,14:41:29,0,\N,\N,\N,\N,-42.90398970478208,-56.27144403555452,1.5043560791287094,-2.7949558631709284,0.46429175375774173,0.43985714422982114,2.8285477001026114,\N,\N,65535,\N,192,1384699289,0,\N
11/17/13,14:41:30,0,\N,\N,\N,\N,-42.90398970478208,-56.27144403555452,1.3605090497579866,2.9938069702676975,6.200143321154711,6.17570871162679,2.8369793716736353,\N,\N,65535,\N,159,1384699290,0,\N
11/17/13,14:41:31,0,\N,\N,\N,\N,-42.90398970478208,-56.27144403555452,1.466067320383932,-2.371243015261886,0.7268696200321008,0.7024350105041801,2.836887405883604,\N,\N,65535,\N,179,1384699291,0,\N
